[
  {
    "id": 1,
    "name": "Redwood Materials",
    "stage": "growth",
    "sector": [
      "Cleantech",
      "Energy",
      "Manufacturing"
    ],
    "city": "Carson City",
    "region": "reno",
    "funding": 4170,
    "momentum": 88,
    "employees": 1200,
    "founded": 2017,
    "description": "Battery recycling and materials for EVs. Founded by Tesla co-founder JB Straubel. $6B+ valuation. DOE $2B loan. Campuses in NV and SC.",
    "eligible": [
      "bbv"
    ],
    "lat": 39.16,
    "lng": -119.77
  },
  {
    "id": 2,
    "name": "Socure",
    "stage": "series_c_plus",
    "sector": [
      "AI",
      "Fintech",
      "Identity"
    ],
    "city": "Incline Village",
    "region": "reno",
    "funding": 744,
    "momentum": 90,
    "employees": 450,
    "founded": 2012,
    "description": "Digital identity verification and fraud prevention. $4.5B valuation. Serves 2,000+ enterprise customers including top US banks.",
    "eligible": [
      "bbv"
    ],
    "lat": 39.25,
    "lng": -119.95
  },
  {
    "id": 3,
    "name": "Abnormal AI",
    "stage": "series_c_plus",
    "sector": [
      "AI",
      "Cybersecurity"
    ],
    "city": "Las Vegas",
    "region": "las_vegas",
    "funding": 534,
    "momentum": 92,
    "employees": 1200,
    "founded": 2018,
    "description": "AI-native email security. Behavioral AI detects socially-engineered attacks. $5.1B valuation. 2,000+ enterprise customers.",
    "eligible": [
      "bbv"
    ],
    "lat": 36.17,
    "lng": -115.14
  },
  {
    "id": 4,
    "name": "TensorWave",
    "stage": "series_a",
    "sector": [
      "AI",
      "Cloud",
      "Data Center"
    ],
    "city": "Las Vegas",
    "region": "las_vegas",
    "funding": 147,
    "momentum": 95,
    "employees": 100,
    "founded": 2023,
    "description": "AMD-powered GPU cloud for AI workloads. $100M Series A (largest in NV history). 8,192 MI325X GPU cluster. $100M+ ARR.",
    "eligible": [
      "bbv",
      "fundnv"
    ],
    "lat": 36.16,
    "lng": -115.17
  },
  {
    "id": 5,
    "name": "1047 Games",
    "stage": "series_c_plus",
    "sector": [
      "Gaming",
      "AI"
    ],
    "city": "Las Vegas",
    "region": "las_vegas",
    "funding": 120,
    "momentum": 72,
    "employees": 100,
    "founded": 2017,
    "description": "Game studio behind Splitgate. Founded in Stanford dorm room. Over $120M raised. Fully remote team.",
    "eligible": [
      "bbv"
    ],
    "lat": 36.17,
    "lng": -115.14
  },
  {
    "id": 6,
    "name": "Hubble Network",
    "stage": "series_b",
    "sector": [
      "IoT",
      "Aerospace",
      "Satellite"
    ],
    "city": "Las Vegas",
    "region": "las_vegas",
    "funding": 100,
    "momentum": 86,
    "employees": 46,
    "founded": 2021,
    "description": "Satellite-powered Bluetooth network. First BLE-to-satellite connection ever. 7 satellites in orbit. Partners with Life360/Tile (90M+ devices).",
    "eligible": [
      "bbv"
    ],
    "lat": 36.17,
    "lng": -115.14
  },
  {
    "id": 7,
    "name": "Boxabl",
    "stage": "series_a",
    "sector": [
      "Construction",
      "Manufacturing"
    ],
    "city": "N. Las Vegas",
    "region": "las_vegas",
    "funding": 75,
    "momentum": 76,
    "employees": 200,
    "founded": 2017,
    "description": "Foldable modular housing. The Casita unfolds into a full-size room in under an hour. 100K+ reservation waitlist. Reg A+ offering.",
    "eligible": [
      "bbv"
    ],
    "lat": 36.24,
    "lng": -115.12
  },
  {
    "id": 8,
    "name": "Blockchains LLC",
    "stage": "growth",
    "sector": [
      "Blockchain",
      "Real Estate"
    ],
    "city": "Sparks",
    "region": "reno",
    "funding": 60,
    "momentum": 52,
    "employees": 150,
    "founded": 2018,
    "description": "Blockchain-based smart city on 67,000 acres in Storey County. Innovation Park. Digital governance platform development.",
    "eligible": [],
    "lat": 39.53,
    "lng": -119.75
  },
  {
    "id": 9,
    "name": "MNTN",
    "stage": "series_b",
    "sector": [
      "AdTech",
      "AI",
      "Media"
    ],
    "city": "Las Vegas",
    "region": "las_vegas",
    "funding": 35,
    "momentum": 84,
    "employees": 250,
    "founded": 2018,
    "description": "Performance TV platform. Self-serve CTV advertising as easy as search and social. Ryan Reynolds is CCO. Fast Company Most Innovative.",
    "eligible": [
      "bbv"
    ],
    "lat": 36.17,
    "lng": -115.14
  },
  {
    "id": 10,
    "name": "Katalyst",
    "stage": "series_a",
    "sector": [
      "Fitness",
      "IoT",
      "Biotech"
    ],
    "city": "Las Vegas",
    "region": "las_vegas",
    "funding": 26,
    "momentum": 78,
    "employees": 50,
    "founded": 2020,
    "description": "EMS fitness bodysuit. Full-body electro-muscle stimulation workout in 20 min. FDA-approved. TIME Best Inventions 2023. Series A led by Stripes.",
    "eligible": [
      "bbv"
    ],
    "lat": 36.06,
    "lng": -115.17
  },
  {
    "id": 11,
    "name": "CIQ",
    "stage": "series_a",
    "sector": [
      "Cloud",
      "Computing",
      "Cybersecurity"
    ],
    "city": "Las Vegas",
    "region": "las_vegas",
    "funding": 26,
    "momentum": 70,
    "employees": 80,
    "founded": 2016,
    "description": "Enterprise Linux infrastructure. Commercial support for Rocky Linux. Cloud, HPC, and container solutions. Founded by Gregory Kurtzer.",
    "eligible": [
      "bbv"
    ],
    "lat": 36.17,
    "lng": -115.14
  },
  {
    "id": 12,
    "name": "Springbig",
    "stage": "growth",
    "sector": [
      "Cannabis",
      "Fintech",
      "Analytics"
    ],
    "city": "Las Vegas",
    "region": "las_vegas",
    "funding": 22,
    "momentum": 58,
    "employees": 100,
    "founded": 2017,
    "description": "Cannabis industry CRM, loyalty, and payment platform. Publicly traded (Nasdaq: SBIG). Serves 1,000+ dispensaries.",
    "eligible": [],
    "lat": 36.17,
    "lng": -115.14
  },
  {
    "id": 13,
    "name": "Protect AI",
    "stage": "series_b",
    "sector": [
      "AI",
      "Cybersecurity"
    ],
    "city": "Las Vegas",
    "region": "las_vegas",
    "funding": 18.5,
    "momentum": 80,
    "employees": 60,
    "founded": 2022,
    "description": "AI and ML security platform. Helps organizations manage security risks from AI systems. Huntr bug bounty for AI.",
    "eligible": [
      "bbv"
    ],
    "lat": 36.17,
    "lng": -115.14
  },
  {
    "id": 14,
    "name": "MagicDoor",
    "stage": "seed",
    "sector": [
      "AI",
      "Real Estate"
    ],
    "city": "Las Vegas",
    "region": "las_vegas",
    "funding": 6.5,
    "momentum": 74,
    "employees": 15,
    "founded": 2023,
    "description": "AI-native property management platform. Automates listing, rent collection, maintenance, compliance. Seed co-led by Okapi VC and Shadow Ventures.",
    "eligible": [
      "fundnv",
      "1864"
    ],
    "lat": 36.17,
    "lng": -115.14
  },
  {
    "id": 15,
    "name": "Stable",
    "stage": "seed",
    "sector": [
      "Blockchain",
      "Fintech",
      "Payments"
    ],
    "city": "Las Vegas",
    "region": "las_vegas",
    "funding": 5.5,
    "momentum": 62,
    "employees": 20,
    "founded": 2022,
    "description": "Blockchain for settling transactions with digital dollars. Gas-free peer transfers. Simplifying digital dollar payments.",
    "eligible": [
      "1864"
    ],
    "lat": 36.17,
    "lng": -115.14
  },
  {
    "id": 16,
    "name": "ThirdWaveRx",
    "stage": "series_a",
    "sector": [
      "Healthcare",
      "AI",
      "Analytics"
    ],
    "city": "Las Vegas",
    "region": "las_vegas",
    "funding": 8,
    "momentum": 66,
    "employees": 35,
    "founded": 2019,
    "description": "Pharmacy cost management with AI-driven formulary optimization. Serves hospitals, LTC, PBMs. Automated rebate and compliance.",
    "eligible": [
      "bbv"
    ],
    "lat": 36.17,
    "lng": -115.14
  },
  {
    "id": 17,
    "name": "Vibrant Planet",
    "stage": "series_a",
    "sector": [
      "Cleantech",
      "AI",
      "Analytics"
    ],
    "city": "Incline Village",
    "region": "reno",
    "funding": 34,
    "momentum": 74,
    "employees": 52,
    "founded": 2019,
    "description": "Cloud platform for wildfire risk + forest restoration. $15M Series A led by EIF. PG&E, Placer County clients. Merged w/ Pyrologix.",
    "eligible": [
      "bbv"
    ],
    "lat": 39.25,
    "lng": -119.95
  },
  {
    "id": 18,
    "name": "Kaptyn",
    "stage": "series_a",
    "sector": [
      "Logistics",
      "Energy",
      "IoT"
    ],
    "city": "Las Vegas",
    "region": "las_vegas",
    "funding": 12,
    "momentum": 60,
    "employees": 45,
    "founded": 2015,
    "description": "Electric fleet-as-a-service for hospitality and corporate transport. Professional drivers, EV fleet, app-based booking. Las Vegas focus.",
    "eligible": [
      "bbv"
    ],
    "lat": 36.17,
    "lng": -115.14
  },
  {
    "id": 19,
    "name": "Climb Credit",
    "stage": "series_a",
    "sector": [
      "Fintech",
      "Education"
    ],
    "city": "Las Vegas",
    "region": "las_vegas",
    "funding": 10,
    "momentum": 56,
    "employees": 30,
    "founded": 2014,
    "description": "Student payment platform making career-focused education affordable. Partners with coding bootcamps and trade schools.",
    "eligible": [],
    "lat": 36.17,
    "lng": -115.14
  },
  {
    "id": 20,
    "name": "Ollie",
    "stage": "series_b",
    "sector": [
      "Consumer",
      "AI",
      "Logistics"
    ],
    "city": "Las Vegas",
    "region": "las_vegas",
    "funding": 62,
    "momentum": 64,
    "employees": 200,
    "founded": 2016,
    "description": "Human-grade fresh dog food delivered. Subscription plans tailored per dog. AI-customized recipes. National DTC delivery.",
    "eligible": [],
    "lat": 36.17,
    "lng": -115.14
  },
  {
    "id": 21,
    "name": "Nudge Security",
    "stage": "series_a",
    "sector": [
      "Cybersecurity",
      "AI"
    ],
    "city": "Las Vegas",
    "region": "las_vegas",
    "funding": 39,
    "momentum": 82,
    "employees": 35,
    "founded": 2021,
    "description": "SaaS & AI security governance. $22.5M Series A Nov 2025 led by Cerberus Ventures. Tripled ARR 2024. ~200 customers incl Reddit.",
    "eligible": [
      "bbv"
    ],
    "lat": 36.17,
    "lng": -115.14
  },
  {
    "id": 22,
    "name": "Carbon Health",
    "stage": "series_c_plus",
    "sector": [
      "Healthcare",
      "AI"
    ],
    "city": "Reno",
    "region": "reno",
    "funding": 350,
    "momentum": 65,
    "employees": 3000,
    "founded": 2015,
    "description": "Modern healthcare clinics with AI-powered diagnostics. Physical and virtual care. Reno and national presence. Series D at $3B valuation.",
    "eligible": [],
    "lat": 39.53,
    "lng": -119.81
  },
  {
    "id": 23,
    "name": "Titan Seal",
    "stage": "seed",
    "sector": [
      "Blockchain",
      "Cybersecurity"
    ],
    "city": "Las Vegas",
    "region": "las_vegas",
    "funding": 1.2,
    "momentum": 45,
    "employees": 8,
    "founded": 2017,
    "description": "Blockchain-based document verification and sealing platform for government and legal records.",
    "eligible": [
      "fundnv"
    ],
    "lat": 36.17,
    "lng": -115.14
  },
  {
    "id": 24,
    "name": "Fund Duel",
    "stage": "seed",
    "sector": [
      "Fintech",
      "Gaming"
    ],
    "city": "Las Vegas",
    "region": "las_vegas",
    "funding": 0.8,
    "momentum": 42,
    "employees": 6,
    "founded": 2018,
    "description": "Fantasy stock market and financial education gaming platform. Gamifies investing for Gen Z.",
    "eligible": [
      "fundnv"
    ],
    "lat": 36.17,
    "lng": -115.14
  },
  {
    "id": 25,
    "name": "Cognizer AI",
    "stage": "series_a",
    "sector": [
      "AI",
      "Analytics"
    ],
    "city": "Las Vegas",
    "region": "las_vegas",
    "funding": 19.4,
    "momentum": 64,
    "employees": 64,
    "founded": 2018,
    "description": "AI-powered business productivity and automation platform. FundNV and GigFounders backed. Enterprise workflow intelligence.",
    "eligible": [
      "fundnv",
      "bbv"
    ],
    "lat": 36.17,
    "lng": -115.14
  },
  {
    "id": 26,
    "name": "SEE ID",
    "stage": "seed",
    "sector": [
      "AI",
      "Identity",
      "Cybersecurity"
    ],
    "city": "Las Vegas",
    "region": "las_vegas",
    "funding": 0.6,
    "momentum": 50,
    "employees": 5,
    "founded": 2023,
    "description": "Visual identity verification using AI for in-person and remote interactions. FundNV seed investment.",
    "eligible": [
      "fundnv",
      "1864"
    ],
    "lat": 36.17,
    "lng": -115.14
  },
  {
    "id": 27,
    "name": "PlayStudios",
    "stage": "growth",
    "sector": [
      "Gaming",
      "Mobile"
    ],
    "city": "Las Vegas",
    "region": "las_vegas",
    "funding": 250,
    "momentum": 55,
    "employees": 500,
    "founded": 2011,
    "description": "Free-to-play mobile games with real-world rewards. MGM, Marriott partnerships. Publicly traded (Nasdaq: MYPS). Kingdom Boss and other titles.",
    "eligible": [],
    "lat": 36.17,
    "lng": -115.14
  },
  {
    "id": 28,
    "name": "Everi Holdings",
    "stage": "growth",
    "sector": [
      "Gaming",
      "Fintech",
      "IoT"
    ],
    "city": "Las Vegas",
    "region": "las_vegas",
    "funding": 180,
    "momentum": 60,
    "employees": 2500,
    "founded": 2014,
    "description": "Gaming technology and fintech solutions. Slot machines, CashClub, financial compliance. NYSE: EVRI.",
    "eligible": [],
    "lat": 36.17,
    "lng": -115.14
  },
  {
    "id": 29,
    "name": "Lyten",
    "stage": "growth",
    "sector": [
      "Cleantech",
      "Manufacturing",
      "Energy"
    ],
    "city": "Reno",
    "region": "reno",
    "funding": 425,
    "momentum": 92,
    "employees": 200,
    "founded": 2015,
    "description": "Lithium-sulfur battery pioneer. $1B+ gigafactory planned at Reno AirLogistics Park. 40% lighter than Li-ion. Backed by Stellantis, FedEx, Honeywell. 1,000+ jobs at full capacity.",
    "eligible": [
      "bbv"
    ],
    "lat": 39.53,
    "lng": -119.81
  },
  {
    "id": 30,
    "name": "Cranel",
    "stage": "seed",
    "sector": [
      "Healthcare",
      "Consumer"
    ],
    "city": "Las Vegas",
    "region": "las_vegas",
    "funding": 0.5,
    "momentum": 52,
    "employees": 8,
    "founded": 2023,
    "description": "Natural cranberry elixir clinically proven to prevent urinary tract infections. AngelNV 2025 finalist. Direct-to-consumer health and wellness.",
    "eligible": [
      "fundnv",
      "1864"
    ],
    "lat": 36.17,
    "lng": -115.14
  },
  {
    "id": 31,
    "name": "fibrX",
    "stage": "seed",
    "sector": [
      "IoT",
      "AI",
      "Defense"
    ],
    "city": "Las Vegas",
    "region": "las_vegas",
    "funding": 1.5,
    "momentum": 64,
    "employees": 10,
    "founded": 2023,
    "description": "Platform-as-a-service combining fiberoptics, AI, and cloud computing for early detection and real-time monitoring of critical infrastructure. AngelNV 2025 finalist.",
    "eligible": [
      "sbir",
      "fundnv"
    ],
    "lat": 36.17,
    "lng": -115.14
  },
  {
    "id": 32,
    "name": "Base Venture",
    "stage": "seed",
    "sector": [
      "Fintech",
      "Analytics"
    ],
    "city": "Carson City",
    "region": "reno",
    "funding": 2.4,
    "momentum": 56,
    "employees": 12,
    "founded": 2021,
    "description": "Financial technology platform for small business expansion. Adams Hub accelerator graduate. Raised $2.4M for growth plans.",
    "eligible": [
      "fundnv",
      "1864"
    ],
    "lat": 39.16,
    "lng": -119.77
  },
  {
    "id": 33,
    "name": "Comstock Mining",
    "stage": "growth",
    "sector": [
      "Mining",
      "Cleantech"
    ],
    "city": "Virginia City",
    "region": "reno",
    "funding": 45,
    "momentum": 56,
    "employees": 75,
    "founded": 2008,
    "description": "Mineral exploration and cleantech in Storey County. Mercury remediation technology. NYSE American: LODE.",
    "eligible": [],
    "lat": 39.31,
    "lng": -119.65
  },
  {
    "id": 34,
    "name": "Filament Health",
    "stage": "series_a",
    "sector": [
      "Biotech",
      "Healthcare"
    ],
    "city": "Reno",
    "region": "reno",
    "funding": 8,
    "momentum": 54,
    "employees": 22,
    "founded": 2020,
    "description": "Standardized natural psilocybin for clinical trials and pharmaceutical development. Drug master file with FDA.",
    "eligible": [
      "bbv"
    ],
    "lat": 39.53,
    "lng": -119.81
  },
  {
    "id": 35,
    "name": "Amerityre",
    "stage": "growth",
    "sector": [
      "Manufacturing",
      "Materials Science"
    ],
    "city": "Henderson",
    "region": "henderson",
    "funding": 12,
    "momentum": 48,
    "employees": 35,
    "founded": 1999,
    "description": "Polyurethane foam tire manufacturer. Flat-free tires for industrial, military, and recreational vehicles.",
    "eligible": [],
    "lat": 36.04,
    "lng": -115.04
  },
  {
    "id": 36,
    "name": "Tilt",
    "stage": "seed",
    "sector": [
      "AI",
      "Logistics"
    ],
    "city": "Las Vegas",
    "region": "las_vegas",
    "funding": 0.4,
    "momentum": 64,
    "employees": 8,
    "founded": 2023,
    "description": "AI-powered logistics platform creating cost-efficient supply chain solutions. AngelNV 2024 winner with $200K+ investment. StartUpNV accelerator graduate.",
    "eligible": [
      "fundnv",
      "1864"
    ],
    "lat": 36.17,
    "lng": -115.14
  },
  {
    "id": 37,
    "name": "Nommi",
    "stage": "seed",
    "sector": [
      "Robotics",
      "AI",
      "Consumer"
    ],
    "city": "Las Vegas",
    "region": "las_vegas",
    "funding": 3,
    "momentum": 60,
    "employees": 18,
    "founded": 2022,
    "description": "Autonomous food delivery robots for the Las Vegas Strip. Hot food vending with robotic kitchen. CES demo.",
    "eligible": [
      "fundnv",
      "1864"
    ],
    "lat": 36.12,
    "lng": -115.17
  },
  {
    "id": 38,
    "name": "Amira Learning",
    "stage": "series_b",
    "sector": [
      "AI",
      "Education"
    ],
    "city": "Las Vegas",
    "region": "las_vegas",
    "funding": 41,
    "momentum": 76,
    "employees": 150,
    "founded": 2018,
    "description": "AI reading tutor for K-8. Merged w/ Istation Jun 2024. Fast Company Most Innovative 2025. 1,800+ school districts. Owl Ventures backed.",
    "eligible": [
      "bbv"
    ],
    "lat": 36.17,
    "lng": -115.14
  },
  {
    "id": 39,
    "name": "Wynn Interactive",
    "stage": "growth",
    "sector": [
      "Gaming",
      "Fintech"
    ],
    "city": "Las Vegas",
    "region": "las_vegas",
    "funding": 50,
    "momentum": 55,
    "employees": 80,
    "founded": 2020,
    "description": "Online gaming and sports betting platform from Wynn Resorts. WynnBET app. Licensed in multiple US states.",
    "eligible": [],
    "lat": 36.13,
    "lng": -115.17
  },
  {
    "id": 40,
    "name": "betJACK",
    "stage": "seed",
    "sector": [
      "Gaming",
      "AI",
      "Analytics"
    ],
    "city": "Las Vegas",
    "region": "las_vegas",
    "funding": 4,
    "momentum": 58,
    "employees": 15,
    "founded": 2022,
    "description": "AI-powered sports betting analytics platform. Real-time odds modeling and bettor risk management.",
    "eligible": [
      "1864",
      "fundnv"
    ],
    "lat": 36.17,
    "lng": -115.14
  },
  {
    "id": 41,
    "name": "Hibear",
    "stage": "seed",
    "sector": [
      "Consumer",
      "Manufacturing"
    ],
    "city": "Las Vegas",
    "region": "las_vegas",
    "funding": 1.2,
    "momentum": 58,
    "employees": 6,
    "founded": 2022,
    "description": "Multifunctional hydro flask with integrated brewing and filtering. StartUpNV portfolio company. Featured on Shark Tank April 2024. Nevada Dealroom ecosystem member.",
    "eligible": [
      "fundnv"
    ],
    "lat": 36.17,
    "lng": -115.14
  },
  {
    "id": 42,
    "name": "nFusz",
    "stage": "series_a",
    "sector": [
      "AI",
      "AdTech",
      "Analytics"
    ],
    "city": "Las Vegas",
    "region": "las_vegas",
    "funding": 7,
    "momentum": 50,
    "employees": 20,
    "founded": 2015,
    "description": "Interactive video platform with AI analytics. Viewer engagement tracking for enterprise sales and marketing.",
    "eligible": [],
    "lat": 36.17,
    "lng": -115.14
  },
  {
    "id": 43,
    "name": "Sapien",
    "stage": "seed",
    "sector": [
      "AI",
      "Blockchain"
    ],
    "city": "Las Vegas",
    "region": "las_vegas",
    "funding": 3.5,
    "momentum": 54,
    "employees": 12,
    "founded": 2020,
    "description": "Decentralized human data labeling platform for AI training. Web3-native annotation marketplace.",
    "eligible": [
      "1864"
    ],
    "lat": 36.17,
    "lng": -115.14
  },
  {
    "id": 44,
    "name": "SITO Mobile",
    "stage": "growth",
    "sector": [
      "AdTech",
      "Analytics",
      "IoT"
    ],
    "city": "Las Vegas",
    "region": "las_vegas",
    "funding": 15,
    "momentum": 46,
    "employees": 40,
    "founded": 2012,
    "description": "Location-based consumer insights and advertising platform. Foot traffic analytics for hospitality and retail.",
    "eligible": [],
    "lat": 36.17,
    "lng": -115.14
  },
  {
    "id": 45,
    "name": "Lucihub",
    "stage": "seed",
    "sector": [
      "AI",
      "Media"
    ],
    "city": "Las Vegas",
    "region": "las_vegas",
    "funding": 3.2,
    "momentum": 62,
    "employees": 12,
    "founded": 2022,
    "description": "AI-powered video production and editing. Automated storyboarding and post-production. CES Innovation Award.",
    "eligible": [
      "fundnv",
      "1864"
    ],
    "lat": 36.17,
    "lng": -115.14
  },
  {
    "id": 46,
    "name": "Tokens.com",
    "stage": "growth",
    "sector": [
      "Blockchain",
      "Fintech"
    ],
    "city": "Las Vegas",
    "region": "las_vegas",
    "funding": 14,
    "momentum": 42,
    "employees": 20,
    "founded": 2021,
    "description": "Publicly traded crypto and metaverse investing company. Staking, DeFi, and digital real estate portfolio.",
    "eligible": [],
    "lat": 36.17,
    "lng": -115.14
  },
  {
    "id": 47,
    "name": "Cloudforce Networks",
    "stage": "seed",
    "sector": [
      "Cloud",
      "AI"
    ],
    "city": "Las Vegas",
    "region": "las_vegas",
    "funding": 0.5,
    "momentum": 54,
    "employees": 8,
    "founded": 2023,
    "description": "Platform integrating key components of AWS Landing Zones into one accessible interface. Simplifies cloud workload management for enterprises. StartUpNV Pitch Day company.",
    "eligible": [
      "fundnv",
      "1864"
    ],
    "lat": 36.17,
    "lng": -115.14
  },
  {
    "id": 48,
    "name": "SiO2 Materials",
    "stage": "series_a",
    "sector": [
      "Materials Science",
      "Manufacturing"
    ],
    "city": "Las Vegas",
    "region": "las_vegas",
    "funding": 10,
    "momentum": 56,
    "employees": 30,
    "founded": 2019,
    "description": "Advanced glass vial manufacturing using plasma-deposited SiO2 coating. Pharma and biotech packaging.",
    "eligible": [
      "bbv"
    ],
    "lat": 36.17,
    "lng": -115.14
  },
  {
    "id": 49,
    "name": "Ioneer",
    "stage": "growth",
    "sector": [
      "Mining",
      "Cleantech",
      "Energy"
    ],
    "city": "Reno",
    "region": "reno",
    "funding": 700,
    "momentum": 82,
    "employees": 60,
    "founded": 2017,
    "description": "Developing Rhyolite Ridge lithium-boron project in Esmeralda County. $700M DOE conditional loan commitment. Only known combined lithium-boron deposit in North America. ASX: INR.",
    "eligible": [
      "bbv"
    ],
    "lat": 39.53,
    "lng": -119.81
  },
  {
    "id": 50,
    "name": "Dragonfly Energy",
    "stage": "growth",
    "sector": [
      "Energy",
      "Manufacturing",
      "Cleantech"
    ],
    "city": "Reno",
    "region": "reno",
    "funding": 120,
    "momentum": 58,
    "employees": 200,
    "founded": 2012,
    "description": "Lithium-ion battery manufacturer specializing in deep-cycle LiFePO4 batteries. Proprietary dry electrode cell manufacturing. Nasdaq: DFLI. Battle Born Batteries brand.",
    "eligible": [
      "bbv"
    ],
    "lat": 39.53,
    "lng": -119.81
  },
  {
    "id": 51,
    "name": "Sierra Nevada Corp",
    "stage": "growth",
    "sector": [
      "Defense",
      "Aerospace",
      "AI"
    ],
    "city": "Sparks",
    "region": "reno",
    "funding": 2000,
    "momentum": 80,
    "employees": 4500,
    "founded": 1963,
    "description": "Global defense and aerospace company. Dream Chaser spaceplane for NASA ISS resupply. Electronic warfare, cybersecurity, autonomous systems. HQ in Sparks.",
    "eligible": [],
    "lat": 39.53,
    "lng": -119.75
  },
  {
    "id": 52,
    "name": "Nevada Nano",
    "stage": "series_a",
    "sector": [
      "Defense",
      "IoT",
      "Semiconductors"
    ],
    "city": "Las Vegas",
    "region": "las_vegas",
    "funding": 8,
    "momentum": 66,
    "employees": 25,
    "founded": 2013,
    "description": "MEMS-based environmental sensing chips. Precise gas detection for defense, industrial, and air quality monitoring.",
    "eligible": [
      "sbir",
      "bbv"
    ],
    "lat": 36.17,
    "lng": -115.14
  },
  {
    "id": 53,
    "name": "Duetto",
    "stage": "series_c_plus",
    "sector": [
      "AI",
      "Hospitality",
      "Analytics"
    ],
    "city": "Las Vegas",
    "region": "las_vegas",
    "funding": 80,
    "momentum": 72,
    "employees": 200,
    "founded": 2012,
    "description": "AI-powered hotel revenue management platform. Dynamic pricing for gaming resorts and hospitality. Used by major casino operators worldwide. Las Vegas-based engineering hub.",
    "eligible": [
      "bbv"
    ],
    "lat": 36.17,
    "lng": -115.14
  },
  {
    "id": 54,
    "name": "GAN Limited",
    "stage": "growth",
    "sector": [
      "Gaming",
      "AI",
      "Fintech"
    ],
    "city": "Las Vegas",
    "region": "las_vegas",
    "funding": 100,
    "momentum": 58,
    "employees": 350,
    "founded": 2002,
    "description": "B2B platform powering online casino and sports betting for major US operators. Simulated gaming and real-money iGaming. Nasdaq: GAN. Las Vegas HQ.",
    "eligible": [],
    "lat": 36.17,
    "lng": -115.14
  },
  {
    "id": 55,
    "name": "NEXGEL",
    "stage": "growth",
    "sector": [
      "Biotech",
      "Manufacturing",
      "Healthcare"
    ],
    "city": "Las Vegas",
    "region": "las_vegas",
    "funding": 15,
    "momentum": 50,
    "employees": 30,
    "founded": 2014,
    "description": "Proprietary ultra-gentle hydrogel technology platform. Medical, cosmetic, and consumer wellness applications. Nasdaq: NXGL. Las Vegas manufacturing.",
    "eligible": [
      "bbv"
    ],
    "lat": 36.17,
    "lng": -115.14
  },
  {
    "id": 56,
    "name": "WaterStart",
    "stage": "series_a",
    "sector": [
      "Water",
      "Cleantech",
      "AI"
    ],
    "city": "Las Vegas",
    "region": "las_vegas",
    "funding": 8,
    "momentum": 68,
    "employees": 20,
    "founded": 2018,
    "description": "Nevada water innovation cluster backed by Southern Nevada Water Authority. Accelerates water tech commercialization. Pilots desalination, reuse, and conservation technologies statewide.",
    "eligible": [
      "bbv",
      "sbir"
    ],
    "lat": 36.17,
    "lng": -115.14
  },
  {
    "id": 57,
    "name": "Now Ads",
    "stage": "pre_seed",
    "sector": [
      "AdTech",
      "AI"
    ],
    "city": "Carson City",
    "region": "reno",
    "funding": 0.3,
    "momentum": 46,
    "employees": 5,
    "founded": 2023,
    "description": "Online advertising platform with AI-driven targeting. Adams Hub accelerator company in Carson City. Seeking pre-seed funding for market expansion.",
    "eligible": [
      "fundnv"
    ],
    "lat": 39.16,
    "lng": -119.77
  },
  {
    "id": 58,
    "name": "Switch Inc",
    "stage": "growth",
    "sector": [
      "Data Center",
      "Cloud",
      "Energy"
    ],
    "city": "Las Vegas",
    "region": "las_vegas",
    "funding": 530,
    "momentum": 60,
    "employees": 1000,
    "founded": 2000,
    "description": "Hyperscale data centers. SUPERNAP campus in Las Vegas is one of the world's largest. Acquired by DigitalBridge 2022.",
    "eligible": [],
    "lat": 36.08,
    "lng": -115.15
  },
  {
    "id": 59,
    "name": "Talentel",
    "stage": "seed",
    "sector": [
      "AI",
      "HR Tech"
    ],
    "city": "Carson City",
    "region": "reno",
    "funding": 0.5,
    "momentum": 48,
    "employees": 6,
    "founded": 2022,
    "description": "AI-powered talent matching and workforce development platform. Adams Hub accelerator graduate. Connecting Nevada employers with skilled workers.",
    "eligible": [
      "fundnv"
    ],
    "lat": 39.16,
    "lng": -119.77
  },
  {
    "id": 60,
    "name": "Elicio Therapeutics",
    "stage": "series_c_plus",
    "sector": [
      "Biotech",
      "Healthcare"
    ],
    "city": "Las Vegas",
    "region": "las_vegas",
    "funding": 100,
    "momentum": 62,
    "employees": 60,
    "founded": 2019,
    "description": "Immunotherapy platform for cancer vaccines. AMP technology targets lymph nodes. Multiple clinical trials.",
    "eligible": [
      "bbv"
    ],
    "lat": 36.17,
    "lng": -115.14
  },
  {
    "id": 61,
    "name": "Canyon Ranch",
    "stage": "growth",
    "sector": [
      "Healthcare",
      "Hospitality"
    ],
    "city": "Las Vegas",
    "region": "las_vegas",
    "funding": 30,
    "momentum": 50,
    "employees": 500,
    "founded": 1979,
    "description": "Integrative wellness destination with precision health and diagnostics programs. Las Vegas and Tucson locations.",
    "eligible": [],
    "lat": 36.17,
    "lng": -115.14
  },
  {
    "id": 62,
    "name": "MiOrganics",
    "stage": "seed",
    "sector": [
      "AI",
      "Enterprise"
    ],
    "city": "Las Vegas",
    "region": "las_vegas",
    "funding": 0.5,
    "momentum": 50,
    "employees": 10,
    "founded": 2022,
    "description": "Custom software development company specializing in innovative business solutions across industries. AngelNV 2025 finalist. Enterprise workflow automation.",
    "eligible": [
      "fundnv",
      "1864"
    ],
    "lat": 36.17,
    "lng": -115.14
  },
  {
    "id": 63,
    "name": "BuildQ",
    "stage": "seed",
    "sector": [
      "AI",
      "Construction",
      "Cleantech"
    ],
    "city": "Las Vegas",
    "region": "las_vegas",
    "funding": 0.4,
    "momentum": 68,
    "employees": 8,
    "founded": 2024,
    "description": "AI-powered project finance platform for renewable energy infrastructure. Streamlines complex financing for developers. AngelNV 2025 winner. First FundNV2 investment ($200K with SSBCI match).",
    "eligible": [
      "fundnv",
      "1864"
    ],
    "lat": 36.17,
    "lng": -115.14
  },
  {
    "id": 64,
    "name": "Nuvve Corp",
    "stage": "growth",
    "sector": [
      "Energy",
      "Logistics",
      "IoT"
    ],
    "city": "Las Vegas",
    "region": "las_vegas",
    "funding": 40,
    "momentum": 52,
    "employees": 50,
    "founded": 2019,
    "description": "Vehicle-to-grid (V2G) technology for electric buses and fleet vehicles. Smart charging infrastructure.",
    "eligible": [
      "bbv"
    ],
    "lat": 36.17,
    "lng": -115.14
  },
  {
    "id": 65,
    "name": "SilverSun Technologies",
    "stage": "growth",
    "sector": [
      "Cloud",
      "AI",
      "Enterprise"
    ],
    "city": "Las Vegas",
    "region": "las_vegas",
    "funding": 10,
    "momentum": 48,
    "employees": 60,
    "founded": 2002,
    "description": "Cloud-based ERP and IT consulting for small and mid-market businesses. Managed IT services and cybersecurity. Nasdaq: SSNT. Las Vegas headquarters.",
    "eligible": [],
    "lat": 36.17,
    "lng": -115.14
  },
  {
    "id": 66,
    "name": "Curaleaf Tech",
    "stage": "growth",
    "sector": [
      "Cannabis",
      "Analytics",
      "Logistics"
    ],
    "city": "Las Vegas",
    "region": "las_vegas",
    "funding": 75,
    "momentum": 54,
    "employees": 300,
    "founded": 2010,
    "description": "Multi-state cannabis operator with significant Nevada presence. Select brand. Cultivation and retail tech platform.",
    "eligible": [],
    "lat": 36.17,
    "lng": -115.14
  },
  {
    "id": 67,
    "name": "Planet 13",
    "stage": "growth",
    "sector": [
      "Cannabis",
      "Retail",
      "IoT"
    ],
    "city": "Las Vegas",
    "region": "las_vegas",
    "funding": 55,
    "momentum": 56,
    "employees": 400,
    "founded": 2017,
    "description": "Superstore cannabis entertainment complex on Las Vegas Strip. World's largest dispensary. Publicly traded (OTC: PLNHF).",
    "eligible": [],
    "lat": 36.14,
    "lng": -115.16
  },
  {
    "id": 68,
    "name": "GBank Financial",
    "stage": "series_a",
    "sector": [
      "Fintech",
      "Banking"
    ],
    "city": "Las Vegas",
    "region": "las_vegas",
    "funding": 8,
    "momentum": 50,
    "employees": 25,
    "founded": 2007,
    "description": "Digital-first community bank holding company. BankCard Services partnership. Fintech-banking bridge.",
    "eligible": [],
    "lat": 36.17,
    "lng": -115.14
  },
  {
    "id": 69,
    "name": "Acres Technology",
    "stage": "series_a",
    "sector": [
      "Gaming",
      "Fintech",
      "IoT"
    ],
    "city": "Las Vegas",
    "region": "las_vegas",
    "funding": 12,
    "momentum": 62,
    "employees": 35,
    "founded": 2013,
    "description": "Foundation casino management platform. Cashless gaming, player loyalty, and real-time analytics for slot floors.",
    "eligible": [
      "bbv"
    ],
    "lat": 36.17,
    "lng": -115.14
  },
  {
    "id": 70,
    "name": "Bombard Renewable Energy",
    "stage": "growth",
    "sector": [
      "Solar",
      "Energy",
      "Construction"
    ],
    "city": "Las Vegas",
    "region": "las_vegas",
    "funding": 25,
    "momentum": 62,
    "employees": 500,
    "founded": 2010,
    "description": "Nevada's largest solar electrical contractor. Commercial and utility-scale solar installations across the Southwest. Subsidiary of Bombard Electric. Major Strip resort projects.",
    "eligible": [],
    "lat": 36.08,
    "lng": -115.18
  },
  {
    "id": 71,
    "name": "Jackpot Digital",
    "stage": "growth",
    "sector": [
      "Gaming",
      "IoT",
      "Fintech"
    ],
    "city": "Las Vegas",
    "region": "las_vegas",
    "funding": 8,
    "momentum": 52,
    "employees": 25,
    "founded": 2013,
    "description": "Electronic table games (ETGs) manufacturer. Dealerless blackjack, roulette, baccarat. Installed at casinos across US, Canada, and international markets. TSX: JP.",
    "eligible": [],
    "lat": 36.17,
    "lng": -115.14
  },
  {
    "id": 72,
    "name": "Skydio Gov",
    "stage": "series_a",
    "sector": [
      "Defense",
      "AI",
      "Drones"
    ],
    "city": "Las Vegas",
    "region": "las_vegas",
    "funding": 10,
    "momentum": 74,
    "employees": 30,
    "founded": 2021,
    "description": "Government and defense drone operations center supporting autonomous UAS missions at NTTR and Nellis AFB. Counter-UAS testing and AI-powered ISR. Nevada operations hub.",
    "eligible": [
      "sbir",
      "bbv"
    ],
    "lat": 36.24,
    "lng": -115.04
  },
  {
    "id": 73,
    "name": "Aqua Metals",
    "stage": "growth",
    "sector": [
      "Cleantech",
      "Manufacturing"
    ],
    "city": "Reno",
    "region": "reno",
    "funding": 120,
    "momentum": 52,
    "employees": 80,
    "founded": 2014,
    "description": "Clean battery recycling with AquaRefining. Non-polluting lead recycling. NYSE American: AQMS. TRIC facility.",
    "eligible": [
      "bbv"
    ],
    "lat": 39.53,
    "lng": -119.81
  },
  {
    "id": 74,
    "name": "Ormat Technologies",
    "stage": "growth",
    "sector": [
      "Energy",
      "Cleantech",
      "Manufacturing"
    ],
    "city": "Reno",
    "region": "reno",
    "funding": 400,
    "momentum": 62,
    "employees": 1400,
    "founded": 1965,
    "description": "Global leader in geothermal energy and recovered energy generation. NYSE: ORA. Reno HQ. Operates geothermal plants across Nevada, California, and internationally.",
    "eligible": [],
    "lat": 39.53,
    "lng": -119.81
  },
  {
    "id": 75,
    "name": "NV5 Global",
    "stage": "growth",
    "sector": [
      "Construction",
      "Energy",
      "Analytics"
    ],
    "city": "Las Vegas",
    "region": "las_vegas",
    "funding": 200,
    "momentum": 56,
    "employees": 4000,
    "founded": 2011,
    "description": "Infrastructure services and consulting firm. Geospatial, environmental, construction QA, energy. Nasdaq: NVEE. Las Vegas HQ with offices across 100+ locations.",
    "eligible": [],
    "lat": 36.17,
    "lng": -115.14
  }
]
